City_ID,City,Lat,Lng,Max Temp,Humidity,Cloudiness,Wind Speed,Country,Date
0,nogliki,51.8333,143.1667,280.01,93,100,2.68,RU,1718390308
1,amahai,-3.3333,128.9167,297.94,89,100,1.59,ID,1718390308
2,georgetown,5.4112,100.3354,304.12,72,20,3.09,MY,1718390181
3,ancud,-41.8697,-73.8203,282.11,74,100,1.43,CL,1718390308
4,blackmans bay,-43.0167,147.3167,279.22,94,100,3.5,AU,1718390308
5,puerto natales,-51.7236,-72.4875,277.4,60,100,9.77,CL,1718390308
6,naze,28.3667,129.4833,297.66,96,100,8.36,JP,1718390308
7,adamstown,-25.066,-130.1015,293.07,70,100,3.53,PN,1718390308
8,isafjordur,66.0755,-23.124,280.17,87,75,4.12,IS,1718390308
9,port-aux-francais,-49.35,70.2167,279.05,91,100,13.34,TF,1718390112
10,egilsstadir,65.2653,-14.3948,288.1,51,0,5.66,IS,1718390308
11,uturoa,-16.7333,-151.4333,300.06,72,1,8.74,PF,1718390308
12,kayangel,8.0823,134.7173,301.44,73,41,3.03,PW,1718390308
13,chokwe,-24.5333,32.9833,290.24,90,0,2.46,MZ,1718390308
14,dudinka,69.4058,86.1778,279.08,96,99,4.02,RU,1718390308
15,puerto ayora,-0.7393,-90.3518,299.13,92,50,1.34,EC,1718390308
16,saudarkrokur,65.7461,-19.6394,279.99,90,100,2.9,IS,1718390308
17,mount isa,-20.7333,139.5,286.02,54,0,1.54,AU,1718390308
18,port alfred,-33.5906,26.891,292.87,46,16,4.07,ZA,1718390309
19,haiku-pauwela,20.9219,-156.3051,300.49,77,20,8.75,US,1718390309
20,bredasdorp,-34.5322,20.0403,285.6,93,0,2.5,ZA,1718390309
21,chonchi,-42.6128,-73.8092,284.33,79,99,0.45,CL,1718390309
22,wailua homesteads,22.0669,-159.378,299.39,77,20,7.72,US,1718390309
23,yuxi,24.355,102.5422,292.85,97,100,1.55,CN,1718390309
24,hawaiian paradise park,19.5933,-154.9731,295.95,97,100,2.06,US,1718390309
25,grytviken,-54.2811,-36.5092,271.6,93,100,3.85,GS,1718390309
26,ilulissat,69.2167,-51.1,278.16,65,75,2.06,GL,1718390309
27,pombas,17.1503,-25.0201,298.03,78,41,6.03,CV,1718390309
28,ushuaia,-54.8,-68.3,272.94,80,20,2.57,AR,1718390098
29,bethel,41.3712,-73.414,301.08,77,100,4.63,US,1718390087
30,edinburgh of the seven seas,-37.0676,-12.3116,286.49,70,9,3.67,SH,1718390309
31,waitangi,-43.9535,-176.5597,283.05,89,100,7.15,NZ,1718390309
32,aspen,39.1911,-106.8175,290.29,62,100,5.66,US,1718390056
33,anadyr,64.75,177.4833,280.43,81,20,5.0,RU,1718390309
34,mapastepec,15.4333,-92.9,301.4,84,82,3.48,MX,1718390309
35,korla,41.7597,86.1469,299.8,31,9,6.99,CN,1718390309
36,salalah,17.0151,54.0924,304.2,84,75,4.12,OM,1718390309
37,longyearbyen,78.2186,15.6401,279.06,65,20,8.75,SJ,1718390309
38,aasiaat,68.7098,-52.8699,274.84,86,100,6.19,GL,1718390309
39,howard springs,-12.497,131.047,293.1,90,78,1.08,AU,1718390309
40,nar'yan-mar,67.6713,53.087,278.21,69,100,5.81,RU,1718390309
41,goundam,16.4145,-3.6708,314.0,19,0,4.89,ML,1718390310
42,albany,42.6001,-73.9662,301.5,55,100,0.45,US,1718390265
43,ribas do rio pardo,-20.4431,-53.7592,306.31,16,2,6.06,BR,1718390244
44,acapulco de juarez,16.8634,-99.8901,302.05,74,100,3.6,MX,1718390222
45,happy valley-goose bay,53.3168,-60.3315,300.32,39,100,9.77,CA,1718390310
46,lethem,3.3803,-59.7968,302.91,70,87,2.64,GY,1718390310
47,avarua,-21.2078,-159.775,297.18,78,100,1.54,CK,1718390310
48,padra,22.2333,73.0833,305.42,56,0,6.76,IN,1718390310
49,invercargill,-46.4,168.35,280.94,98,100,2.68,NZ,1718390310
50,olonkinbyen,70.9221,-8.7187,275.67,84,100,3.14,SJ,1718390310
51,fort st. john,56.2499,-120.8529,283.09,71,100,3.6,CA,1718390149
52,saldanha,-33.0117,17.9442,285.18,86,0,4.08,ZA,1718390310
53,quellon,-43.1167,-73.6167,281.9,77,100,1.94,CL,1718390310
54,kenai,60.5544,-151.2583,289.83,62,0,3.09,US,1718390133
55,kendari,-3.945,122.4989,296.44,93,94,1.23,ID,1718390310
56,atafu village,-8.5421,-172.5159,300.94,79,100,6.01,TK,1718390310
57,tiksi,71.6872,128.8694,282.06,65,55,1.06,RU,1718390310
58,talnakh,69.4865,88.3972,278.82,98,100,1.95,RU,1718390310
59,pandan,14.0453,124.1694,300.44,84,100,1.94,PH,1718390310
60,college,64.8569,-147.8028,289.76,79,75,3.09,US,1718390310
61,ust-nera,64.5667,143.2,285.35,77,90,2.31,RU,1718390310
62,huatabampo,26.8333,-109.6333,306.43,47,2,5.17,MX,1718390310
63,yeppoon,-23.1333,150.7333,284.4,87,0,2.54,AU,1718390310
64,ribeira brava,32.65,-17.0667,296.32,74,10,1.42,PT,1718390310
65,shuangjiang,26.1547,109.7138,294.75,99,100,0.47,CN,1718390311
66,bahia de caraquez,-0.6,-80.4167,299.25,80,100,6.56,EC,1718390311
67,sitka,57.0531,-135.33,284.09,76,100,5.66,US,1718390263
68,argo,37.6333,22.7333,298.59,35,3,1.42,GR,1718390311
69,kapuskasing,49.4169,-82.4331,285.2,50,75,5.14,CA,1718390222
70,badger,64.8,-147.5333,289.71,78,75,3.09,US,1718390156
71,fomboni,-12.28,43.7425,299.55,65,0,5.02,KM,1718390311
72,as salamiyah,35.0113,37.0532,305.11,28,0,4.23,SY,1718390311
73,las tablas,7.7667,-80.2833,298.91,91,100,2.63,PA,1718390311
74,nova olimpia,-14.7972,-57.2881,308.29,24,5,4.06,BR,1718390311
75,jamestown,42.097,-79.2353,297.85,38,20,4.63,US,1718390236
76,gadzhiyevo,69.2551,33.3362,286.72,65,18,2.78,RU,1718390311
77,port lincoln,-34.7333,135.8667,287.02,73,38,5.87,AU,1718390169
78,punta arenas,-53.15,-70.9167,275.16,100,75,10.29,CL,1718390311
79,wynyard,-41.0,145.7167,278.57,77,100,2.59,AU,1718390311
80,margaret river,-33.95,115.0667,284.41,87,3,4.35,AU,1718390311
81,guarapari,-20.6667,-40.4975,299.04,59,0,6.74,BR,1718390311
82,camlidere,40.4896,32.475,292.47,81,10,0.95,TR,1718390311
83,arraial do cabo,-22.9661,-42.0278,302.13,48,0,6.69,BR,1718390311
84,ola,59.5833,151.2833,284.34,81,21,1.12,RU,1718390311
85,charters towers,-20.1,146.2667,284.75,85,0,1.47,AU,1718390169
86,udachny,66.4167,112.4,281.18,68,100,6.08,RU,1718390311
87,hamilton,39.1834,-84.5333,303.16,62,75,4.12,US,1718390148
88,la'ie,21.6477,-157.9253,301.13,76,100,4.92,US,1718390311
89,papatowai,-46.5619,169.4708,283.44,96,100,8.82,NZ,1718390311
90,kotel'nikovo,47.6317,43.1461,296.66,56,0,2.83,RU,1718390311
91,cadale,2.7603,46.3222,299.3,84,55,7.39,SO,1718390312
92,susuman,62.7833,148.1667,283.14,80,88,1.79,RU,1718390312
93,dholka,22.7167,72.4667,301.36,49,70,6.19,IN,1718390312
94,ciudad lazaro cardenas,17.9583,-102.2,303.84,65,56,5.54,MX,1718390312
95,pisco,-13.7,-76.2167,293.18,73,74,4.12,PE,1718390312
96,south sioux city,42.4739,-96.4136,303.15,25,0,2.57,US,1718390312
97,pimentel,-6.8367,-79.9342,296.31,64,0,7.2,PE,1718390312
98,colonia,50.9333,6.95,293.51,72,0,4.63,DE,1718390157
99,yellowknife,62.456,-114.3525,288.94,49,40,6.71,CA,1718390312
100,abashiri,44.0213,144.2697,285.67,96,74,3.72,JP,1718390312
101,paita,-5.0892,-81.1144,295.54,65,70,6.71,PE,1718390312
102,port mathurin,-19.6833,63.4167,296.82,71,100,9.07,MU,1718390312
103,minas de marcona,-15.2119,-75.1103,290.87,55,4,7.39,PE,1718390312
104,sigli,5.3848,95.9609,299.38,85,44,2.13,ID,1718390312
105,port elizabeth,-33.918,25.5701,287.21,72,92,2.57,ZA,1718390312
106,crane,31.3974,-102.3501,308.04,29,0,8.05,US,1718390312
107,santa terezinha,-29.9002,-50.0904,295.8,70,28,3.92,BR,1718390044
108,thayetmyo,19.3167,95.1833,298.9,90,100,2.53,MM,1718390312
109,thongwa,16.7619,96.5278,300.24,90,100,2.61,MM,1718390312
110,coxim,-18.5067,-54.76,308.18,20,0,5.44,BR,1718390312
111,lepsy,46.235,78.9456,291.82,57,5,2.74,KZ,1718390313
112,taiynsha,53.8478,69.7639,294.12,91,76,2.7,KZ,1718390313
113,east london,-33.0153,27.9116,291.67,72,0,3.6,ZA,1718390313
114,gorontalo,0.5412,123.0595,296.26,96,100,0.27,ID,1718390313
115,mount gambier,-37.8333,140.7667,278.69,86,100,1.94,AU,1718390313
116,askoy,60.4092,5.226,291.46,58,0,3.6,NO,1718390313
117,soio,-6.1349,12.3689,296.35,90,100,4.25,AO,1718390313
118,honefoss,60.168,10.2565,288.99,79,100,2.01,NO,1718390313
119,gogrial,8.5332,28.1004,299.4,72,12,1.75,SS,1718390313
120,codrington,-38.2667,141.9667,282.43,81,100,2.68,AU,1718390313
121,segorbe,39.8138,-0.4521,299.79,43,0,2.1,ES,1718390313
122,tromso,69.6496,18.957,283.16,76,20,7.72,NO,1718390100
123,kodiak,57.79,-152.4072,288.88,48,100,5.66,US,1718390313
124,olinda,-8.0089,-34.8553,297.0,94,100,4.12,BR,1718390313
125,iqaluit,63.7506,-68.5145,275.0,93,100,5.14,CA,1718390313
126,ulsteinvik,62.3432,5.8487,291.65,69,99,0.89,NO,1718390313
127,salavan,15.7167,106.4167,300.46,73,96,0.9,LA,1718390313
128,new norfolk,-42.7826,147.0587,279.87,91,99,0.92,AU,1718390313
129,ribeira grande,38.5167,-28.7,295.37,73,20,4.47,PT,1718390314
130,svatove,49.4103,38.1503,292.66,75,49,3.6,UA,1718390314
131,qaqortoq,60.7167,-46.0333,279.17,78,97,2.21,GL,1718390314
132,arno,60.1167,18.6333,285.81,67,100,4.32,SE,1718390314
133,mount pearl,47.5166,-52.7813,295.34,56,40,10.29,CA,1718390283
134,callao,-12.0667,-77.15,292.31,68,40,4.12,PE,1718390263
135,quesnel,52.9999,-122.5029,286.43,62,75,2.06,CA,1718390314
136,westport,41.1415,-73.3579,303.21,62,20,3.09,US,1718390225
137,lihue,21.9789,-159.3672,299.73,71,20,7.72,US,1718390056
138,gebeit,21.0667,36.3167,306.75,14,44,2.95,SD,1718390314
139,mazagao,-0.115,-51.2894,302.18,83,100,2.52,BR,1718390314
140,yuzhno-kurilsk,44.0306,145.8556,281.14,95,100,2.64,RU,1718390314
141,petropavlovsk-kamchatsky,53.0452,158.6483,281.18,90,75,4.47,RU,1718390314
142,maqat,47.65,53.3167,305.68,19,70,2.28,KZ,1718390314
143,abepura,-2.6333,140.5833,296.6,100,40,1.03,ID,1718390314
144,tolanaro,-25.0319,46.9987,294.19,94,75,4.12,MG,1718390314
145,puerto maldonado,-12.6,-69.1833,303.37,79,40,4.63,PE,1718390115
146,fort mcmurray,56.7268,-111.381,293.92,52,20,3.09,CA,1718390314
147,bukama,-9.2,25.85,293.96,34,0,1.63,CD,1718390314
148,margate,51.3813,1.3862,289.65,67,100,5.36,GB,1718390314
149,parakou,9.3372,2.6303,301.17,66,100,2.88,BJ,1718390314
150,kattivakkam,13.2167,80.3167,304.2,87,89,1.86,IN,1718390314
151,winnemucca,40.973,-117.7357,303.18,15,0,6.17,US,1718390315
152,papao,-17.75,-149.55,300.97,79,15,8.3,PF,1718390315
153,tamanrasset,22.785,5.5228,309.1,6,0,6.17,DZ,1718390315
154,hadibu,12.65,54.0333,301.19,77,100,6.7,YE,1718390315
155,thompson,55.7435,-97.8558,293.24,40,75,6.17,CA,1718390315
156,hualien city,23.9769,121.6044,300.54,71,7,2.31,TW,1718390315
157,la ronge,55.1001,-105.2842,293.27,48,75,4.63,CA,1718390315
158,murom,55.5656,42.0417,289.13,85,100,3.33,RU,1718390315
159,rome,34.257,-85.1647,307.33,46,40,0.48,US,1718390311
160,antofagasta,-23.65,-70.4,290.75,67,0,2.07,CL,1718390036
161,rio preto da eva,-2.6994,-59.6997,306.76,45,99,3.23,BR,1718390315
162,murray bridge,-35.1167,139.2667,282.23,92,100,2.8,AU,1718390315
163,stanley,54.868,-1.6985,289.16,54,20,3.6,GB,1718390315
164,west island,-12.1568,96.8225,300.14,83,100,7.2,CC,1718390315
165,mariehamn,60.0973,19.9348,285.83,82,0,6.17,AX,1718390315
166,vorgashor,67.5833,63.95,281.37,94,100,5.41,RU,1718390315
167,ebaye,8.7748,167.7392,301.16,78,40,8.16,MH,1718390315
168,tofol,5.3248,163.0078,300.56,75,100,2.26,FM,1718390315
169,sirte,31.2089,16.5887,297.42,78,25,5.37,LY,1718390316
170,tangalle,6.024,80.7911,299.24,84,96,5.78,LK,1718390316
171,elko,41.0002,-115.5012,301.57,18,0,9.39,US,1718390316
172,murray,40.6669,-111.888,306.22,23,20,8.23,US,1718390316
173,bel ombre,-4.6167,55.4167,301.06,78,20,1.54,SC,1718390316
174,sasebo,33.1592,129.7228,294.38,84,96,0.53,JP,1718390316
175,hami,42.8,93.45,301.27,30,100,4.46,CN,1718390316
176,tarko-sale,64.9225,77.785,283.66,88,100,8.14,RU,1718390316
177,palm beach,26.6503,-80.4498,305.94,74,100,2.41,US,1718390316
178,garissa,-0.4536,39.6401,297.93,64,5,9.33,KE,1718390316
179,nishinoomote,30.7333,131.0,297.54,90,100,3.55,JP,1718390316
180,yarovoye,52.9273,78.58,292.72,81,50,2.69,RU,1718390316
181,coquimbo,-29.9533,-71.3436,289.0,83,100,5.66,CL,1718390225
182,taro,-8.3862,115.28,295.15,100,51,1.02,ID,1718390316
183,vanino,49.0869,140.2543,283.11,99,100,0.29,RU,1718390316
184,kingston,17.997,-76.7936,305.46,66,20,9.77,JM,1718390183
185,gizo,-8.103,156.8419,299.93,85,94,5.63,SB,1718390316
186,newman,37.3138,-121.0208,301.34,12,0,0.89,US,1718390316
187,sao joao da barra,-21.6403,-41.0511,302.2,71,0,8.13,BR,1718390051
188,ha'il,27.5219,41.6907,309.16,12,0,3.09,SA,1718390221
189,panaba,21.2833,-88.2667,305.14,61,100,3.3,MX,1718390317
190,constantia,44.1833,28.65,292.53,85,99,8.77,RO,1718390317
191,jiamusi,46.8333,130.35,284.86,99,100,3.08,CN,1718390317
192,mizdah,31.4451,12.9801,302.41,29,0,8.73,LY,1718390317
193,baghlan,35.75,69.0,293.52,30,100,0.58,AF,1718390317
194,mount pleasant,32.7941,-79.8626,308.2,57,0,3.6,US,1718390019
195,saipan,15.1355,145.701,301.54,78,40,5.14,MP,1718390039
196,levuka,50.1834,-105.4011,296.99,35,100,5.55,CA,1718390317
197,tambo,-14.8,-73.9167,284.2,31,4,5.24,PE,1718390317
198,mollendo,-17.0231,-72.0147,290.99,74,52,4.59,PE,1718390317
199,vorkuta,67.5,64.0,281.54,94,100,2.24,RU,1718390317
200,kiambu,-1.1667,36.8333,291.61,72,75,3.6,KE,1718390317
201,tari,12.4086,4.4914,307.29,45,83,1.21,NG,1718390317
202,puerto baquerizo moreno,-0.9,-89.6,297.7,78,75,5.14,EC,1718390317
203,maloye ganyushkino,46.6,49.2667,300.45,37,83,1.99,KZ,1718390317
204,rakops,-21.0167,24.3333,288.03,31,0,3.66,BW,1718390317
205,whitehorse,60.7161,-135.0538,289.83,53,75,2.06,CA,1718390318
206,kapa'a,22.0752,-159.319,300.14,77,20,7.72,US,1718390103
207,urucara,-2.5364,-57.76,304.66,58,87,2.01,BR,1718390318
208,itoman,26.1247,127.6694,301.36,100,100,8.75,JP,1718390318
209,remire-montjoly,4.9167,-52.2667,301.17,83,75,2.06,GF,1718390318
210,durban,-29.8579,31.0292,290.66,84,0,4.85,ZA,1718390318
211,shoreham-by-sea,50.8341,-0.2743,289.49,78,20,7.2,GB,1718390318
212,holualoa,19.6228,-155.9522,298.06,78,0,2.57,US,1718390318
213,samitah,16.596,42.9444,307.63,42,42,0.63,SA,1718390318
214,senatobia,34.6176,-89.9687,306.38,57,6,1.34,US,1718390303
215,rio grande,-32.035,-52.0986,301.21,69,2,3.86,BR,1718390318
216,malabar,-33.9667,151.25,284.89,94,100,5.66,AU,1718390318
217,bubaque,11.2833,-15.8333,300.67,75,100,5.73,GW,1718390318
218,boryeong,36.3493,126.5977,296.13,89,99,1.59,KR,1718390318
219,kangding,30.0513,101.9603,287.07,89,100,1.04,CN,1718390318
220,agapovka,53.2973,59.1348,296.71,55,1,0.97,RU,1718390319
221,khandyga,62.6667,135.6,284.1,94,35,1.83,RU,1718390319
222,castillos,-34.1667,-53.8333,291.71,92,100,2.63,UY,1718390319
223,tura,25.5198,90.2201,297.88,98,65,2.79,IN,1718390319
224,bonny,4.4522,7.1681,298.77,89,100,5.4,NG,1718390319
225,ma'rib,15.4591,45.3253,304.08,18,84,2.63,YE,1718390319
226,saint-francois,46.4154,3.9054,291.84,90,100,2.06,FR,1718390319
227,pauini,-7.7136,-66.9764,307.12,44,100,1.64,BR,1718390319
228,mezhdurechensk,53.6942,88.0603,289.88,89,100,1.17,RU,1718390319
229,chivhu,-19.0211,30.8922,280.14,73,0,3.4,ZW,1718390266
230,bengkulu,-3.8004,102.2655,298.55,90,100,1.89,ID,1718390319
231,ghanzi,-21.5667,21.7833,286.14,28,0,3.74,BW,1718390319
232,bilibino,68.0546,166.4372,288.68,51,47,1.3,RU,1718390319
233,corn island,12.1694,-83.0418,302.24,70,100,2.59,NI,1718390319
234,keflavik,64.0049,-22.5624,284.39,66,75,4.63,IS,1718390319
235,armacao de buzios,-22.7469,-41.8817,305.18,69,0,8.97,BR,1718390319
236,sur,22.5667,59.5289,306.29,54,0,3.76,OM,1718390319
237,emirgazi,37.9022,33.8372,292.78,64,100,7.21,TR,1718390319
238,kavaratti,10.5669,72.642,301.89,81,20,4.13,IN,1718390319
239,ta`u,-14.2336,-169.5144,300.97,82,23,7.42,AS,1718390319
240,champerico,14.3,-91.9167,303.45,80,99,9.48,GT,1718390319
241,enewetak,11.3474,162.3373,301.09,76,100,8.05,MH,1718390319
242,fisterra,42.9049,-9.2629,289.68,79,22,4.78,ES,1718390319
243,beli,7.8587,10.9719,299.47,85,93,1.87,NG,1718390320
244,oriximina,-1.7656,-55.8661,304.46,60,66,3.62,BR,1718390320
245,igarka,67.4667,86.5833,279.83,78,99,2.68,RU,1718390320
246,stanthorpe,-28.6667,151.95,281.16,68,73,2.71,AU,1718390320
247,betio village,1.358,172.9211,301.17,77,100,5.19,KI,1718390320
248,fada,9.5667,8.3,293.76,94,100,1.57,NG,1718390320
249,domanivka,47.6319,30.9885,291.44,89,100,2.47,UA,1718390320
250,punta del este,-34.9667,-54.95,288.21,91,75,4.12,UY,1718390320
251,port saint john's,-31.6229,29.5448,291.52,73,0,3.39,ZA,1718390320
252,cooper's town,26.8667,-77.5167,300.05,81,100,10.18,BS,1718390320
253,trongsa,27.5026,90.5072,286.22,99,100,0.76,BT,1718390320
254,bor,56.3567,44.0669,292.04,88,98,3.45,RU,1718390320
255,tshabong,-26.05,22.45,288.34,26,0,3.0,BW,1718390320
256,fale old settlement,-9.3852,-171.2468,301.89,78,100,6.38,TK,1718390320
257,cartagena,10.3997,-75.5144,305.94,66,40,5.66,CO,1718390040
258,las lomitas,-24.7096,-60.593,308.37,29,0,5.79,AR,1718390320
259,puerto leguizamo,-0.1934,-74.7819,301.62,82,98,0.5,CO,1718390320
260,gorodoviki,46.1353,41.9656,297.09,48,0,2.59,RU,1718390320
261,afaahiti,-17.75,-149.2833,300.08,82,65,7.58,PF,1718390320
262,la ceiba,15.7597,-86.7822,304.05,66,20,4.12,HN,1718390320
263,belem de sao francisco,-8.7539,-38.9658,304.53,33,9,8.45,BR,1718390320
264,chilecito,-29.1619,-67.4974,297.32,14,0,3.51,AR,1718390170
265,baykal'sk,51.5058,104.1469,287.05,60,1,4.51,RU,1718390320
266,gushu,31.5598,118.4829,299.14,82,0,2.12,CN,1718390320
267,iskateley,67.6803,53.1512,278.16,69,100,5.81,RU,1718390321
268,nabire,-3.3667,135.4833,297.06,92,100,1.43,ID,1718390321
269,waingapu,-9.6567,120.2641,294.14,83,25,2.33,ID,1718390107
270,port moresby,-9.4431,147.1797,295.19,81,99,2.96,PG,1718390321
271,luderitz,-26.6481,15.1594,289.71,73,0,5.47,NA,1718390321
272,north ward,-19.2454,146.8075,285.1,100,0,0.0,AU,1718390321
273,kamina,-8.7386,24.9906,290.27,36,0,1.78,CD,1718390321
274,okhotsk,59.3833,143.3,278.55,92,94,2.98,RU,1718390321
275,mbandaka,0.0487,18.2603,301.26,52,100,1.09,CD,1718390321
276,cooma,-36.2333,149.1333,276.95,93,100,1.91,AU,1718390113
277,nemuro,43.3236,145.575,282.21,95,100,2.33,JP,1718390321
278,namibe,-15.1961,12.1522,292.8,78,0,3.06,AO,1718390321
279,chibougamau,49.9168,-74.3659,279.94,81,100,5.14,CA,1718390321
280,vila do maio,15.1333,-23.2167,299.59,86,9,8.46,CV,1718390321
281,ponta delgada,37.7333,-25.6667,294.55,64,20,5.66,PT,1718390321
282,seabra,-12.4186,-41.7703,296.77,53,6,3.99,BR,1718390321
283,manadhoo,5.7667,73.3833,301.73,77,100,6.87,MV,1718390321
284,al jawf,29.5,38.75,307.07,15,0,3.58,SA,1718390321
285,yarmouth,41.7057,-70.2286,301.29,71,0,7.2,US,1718390073
286,jayapura,-2.5333,140.7,296.81,92,100,1.73,ID,1718390322
287,nikolayevsk-on-amure,53.1406,140.73,281.05,94,99,1.79,RU,1718390322
288,peniche,39.3558,-9.3811,292.75,81,6,8.03,PT,1718390322
289,kone,-21.0595,164.8658,289.53,79,4,1.63,NC,1718390322
290,vila velha,-20.3297,-40.2925,301.12,57,0,6.17,BR,1718390025
291,kuragino,53.8975,92.6725,291.9,77,5,1.04,RU,1718390322
292,ostersund,63.1792,14.6357,287.93,62,20,2.57,SE,1718390322
293,paso de los libres,-29.7131,-57.0899,300.18,55,100,4.86,AR,1718390230
294,general acha,-37.377,-64.6043,291.54,28,100,7.23,AR,1718390322
295,santyoku,37.4406,129.1708,294.21,73,100,2.06,KR,1718390322
296,chilaw,7.5758,79.7953,301.16,84,100,8.67,LK,1718390322
297,vallenar,-28.5708,-70.7581,292.37,51,44,2.7,CL,1718390144
298,carnarvon,-24.8667,113.6333,292.93,68,25,5.63,AU,1718390322
299,daru,-9.0763,143.2092,297.64,77,100,4.69,PG,1718390322
300,north platte,41.1239,-100.7654,298.21,58,40,6.71,US,1718390322
301,inhambane,-23.865,35.3833,291.14,100,75,1.54,MZ,1718390322
302,kaa-khem,51.6833,94.7333,293.38,34,0,2.57,RU,1718390322
303,cockburn town,21.4612,-71.1419,301.12,75,45,6.73,TC,1718390322
304,berezovyy,51.6667,135.7,281.54,96,100,0.88,RU,1718390322
305,santiago de cao,-7.9589,-79.2392,292.22,77,75,4.63,PE,1718390322
306,brookings,44.3114,-96.7984,299.51,44,72,0.53,US,1718390225
307,calvinia,-31.4707,19.776,288.62,44,0,1.5,ZA,1718390322
308,port hedland,-20.3167,118.5667,289.18,100,0,3.09,AU,1718390323
309,lebu,-37.6167,-73.65,286.63,85,50,7.12,CL,1718390323
310,tulun,54.5611,100.5792,288.31,65,98,1.01,RU,1718390323
311,kruisfontein,-34.0033,24.7314,288.9,41,50,2.76,ZA,1718390323
312,mantua,45.1667,10.7833,296.73,73,54,2.18,IT,1718390323
313,broken hill,-31.95,141.4333,282.64,82,4,2.59,AU,1718390323
314,burgos,42.3394,-3.7079,295.38,46,75,8.75,ES,1718390323
315,puerto san jose,13.9256,-90.8244,302.18,74,40,6.17,GT,1718390323
316,chernyshevskiy,63.0128,112.4714,285.92,93,100,5.29,RU,1718390323
317,alice springs,-23.7,133.8833,281.9,93,5,1.54,AU,1718390323
318,yanbu,24.0891,38.0637,305.17,70,0,3.6,SA,1718390323
319,shitanjing,39.2342,106.3439,293.13,27,0,1.86,CN,1718390323
320,glace bay,46.1969,-59.957,297.47,54,75,9.26,CA,1718390323
321,hilo,19.7297,-155.09,296.07,98,100,2.06,US,1718390323
322,lerwick,60.1545,-1.1494,284.15,94,100,11.57,GB,1718390323
323,hermanus,-34.4187,19.2345,284.15,87,8,2.64,ZA,1718390323
324,kerikeri,-35.2268,173.9474,284.49,78,100,1.94,NZ,1718390323
325,yashan,22.1975,109.9419,299.48,93,100,1.15,CN,1718390323
326,boende,-0.2167,20.8667,300.74,51,30,0.22,CD,1718390323
327,yatou,37.15,122.3833,292.29,97,100,0.9,CN,1718390323
328,usogorsk,63.4106,48.6872,287.41,97,100,4.28,RU,1718390323
329,northam,51.0333,-4.2167,284.48,93,100,5.07,GB,1718390324
330,novyy urgal,51.0736,132.5642,280.74,93,82,1.42,RU,1718390324
331,laojunmiao,39.8333,97.7333,292.7,35,100,1.13,CN,1718390324
332,lewistown,40.5992,-77.5714,297.82,73,75,2.57,US,1718390324
333,plastun,44.7561,136.2939,281.64,99,100,0.86,RU,1718390324
334,mejit,10.2753,170.8646,300.86,78,1,7.25,MH,1718390324
335,freetown,8.484,-13.2299,296.99,94,75,2.57,SL,1718390324
336,sao bento do sul,-26.2503,-49.3786,297.73,61,100,2.9,BR,1718390324
337,sorong,-0.8833,131.25,298.25,93,100,4.47,ID,1718390324
338,tidjikja,18.5564,-11.4271,306.99,31,95,9.09,MR,1718390324
339,juneau,58.3019,-134.4197,282.27,95,100,4.12,US,1718390118
340,i-n-salah,27.1935,2.4607,314.4,10,7,3.87,DZ,1718390324
341,gordes,38.9328,28.2894,293.13,78,9,3.85,TR,1718390324
342,sovetskiy,61.3614,63.5842,293.65,79,100,4.92,RU,1718390324
343,lorengau,-2.0226,147.2712,299.53,80,100,0.91,PG,1718390324
344,mukalla,14.5425,49.1242,303.79,74,5,3.66,YE,1718390324
345,yemva,62.59,50.8594,288.25,94,100,3.31,RU,1718390324
346,bangassou,4.7413,22.8184,296.4,87,91,1.14,CF,1718390324
347,kenitra,34.261,-6.5802,295.57,73,100,2.22,MA,1718390324
348,palamos,41.8484,3.1291,299.02,54,2,2.24,ES,1718390324
349,le vauclin,14.5452,-60.8388,305.18,58,75,4.12,MQ,1718390034
350,benguela,-12.5763,13.4055,294.77,90,6,2.01,AO,1718390325
351,kolonia,50.9333,6.95,293.51,72,0,4.63,DE,1718390154
352,el calafate,-50.3408,-72.2768,275.52,81,7,6.03,AR,1718390325
353,macau,22.2006,113.5461,303.04,100,40,4.12,MO,1718390093
354,maharajgani,26.1167,84.4833,305.21,64,7,6.9,IN,1718390325
355,ashmyany,54.425,25.9378,287.15,92,100,2.03,BY,1718390325
356,touros,-5.1989,-35.4608,300.47,78,43,5.14,BR,1718390325
357,fedorovka,53.6314,62.7078,296.1,63,0,2.74,KZ,1718390325
358,lawas,13.764,121.0566,299.68,84,89,1.29,PH,1718390325
359,talakan,50.3167,130.3667,283.87,89,100,1.08,RU,1718390325
360,opuwo,-18.0607,13.84,290.37,23,0,3.43,NA,1718390325
361,yichun,47.7,128.9,284.4,99,100,1.65,CN,1718390325
362,zhangye,38.9342,100.4517,296.2,34,100,3.1,CN,1718390325
363,am timan,11.0297,20.2827,304.12,47,100,3.1,TD,1718390325
364,tres palos,18.1833,-101.6167,302.76,59,93,1.92,MX,1718390325
365,zhezqazghan,47.7833,67.7667,295.47,46,0,5.0,KZ,1718390325
366,charlottetown,46.2352,-63.1267,300.31,53,75,10.29,CA,1718390253
367,galliano,29.4422,-90.2992,306.48,55,0,3.09,US,1718390325
368,baruun-urt,46.6806,113.2792,285.72,54,51,2.35,MN,1718390325
369,baiti,13.745,-14.7482,305.95,42,58,2.08,SN,1718390325
370,kulhudhuffushi,6.6221,73.07,301.9,79,100,6.63,MV,1718390325
371,vengerovo,55.6848,76.7471,291.78,86,5,0.98,RU,1718390326
372,pacific grove,36.6177,-121.9166,295.73,77,0,4.47,US,1718390326
373,chany,55.3121,76.7647,291.52,85,1,1.3,RU,1718390326
374,ilha de mocambique,-15.0342,40.7358,296.2,81,77,8.59,MZ,1718390326
375,christchurch,-43.5333,172.6333,281.99,95,100,1.54,NZ,1718390326
376,aldinga beach,-35.2793,138.4604,284.08,92,100,4.88,AU,1718390326
377,mancio lima,-7.6142,-72.8958,305.19,58,40,3.09,BR,1718390326
378,vung tau,10.346,107.0843,301.45,82,100,5.13,VN,1718390102
379,lib,8.3122,167.3766,301.46,73,100,8.12,MH,1718390326
380,kolonia town,6.964,158.206,299.54,85,100,5.21,FM,1718390326
381,tekeli,44.83,78.8239,284.66,81,33,5.0,KZ,1718390326
382,kabalo,-6.05,26.9167,298.58,35,0,2.0,CD,1718390326
383,labytnangi,66.6572,66.4183,283.92,88,100,1.98,RU,1718390326
384,pitea,65.3172,21.4794,288.2,73,0,2.56,SE,1718390326
385,magadan,59.5667,150.8,284.0,79,26,1.69,RU,1718390326
386,st. john's,47.5649,-52.7093,295.81,56,40,10.29,CA,1718390326
387,zakynthos,37.7914,20.8953,296.77,50,0,3.6,GR,1718390326
388,pekan,3.4836,103.3996,297.21,96,100,1.49,MY,1718390326
389,nyala,12.05,24.8833,303.09,45,3,6.83,SD,1718390326
390,noosa heads,-26.3833,153.15,285.0,58,35,3.45,AU,1718390326
391,michendorf,52.3012,13.0257,290.23,80,99,2.41,DE,1718390326
392,sisimiut,66.9395,-53.6735,281.08,55,99,0.23,GL,1718390326
393,aonla,28.2833,79.15,309.16,26,0,5.44,IN,1718390327
394,farmington,36.7281,-108.2187,298.99,55,0,7.72,US,1718390105
395,guerrero negro,27.9769,-114.0611,295.04,59,0,7.76,MX,1718390327
396,guatrache,-37.6678,-63.5302,290.52,39,100,4.47,AR,1718390327
397,crescent city,41.756,-124.2018,291.73,78,0,5.66,US,1718390267
398,kishtwar,33.3167,75.7667,291.35,54,0,2.93,IN,1718390327
399,hobyo,5.3505,48.5268,299.13,80,45,12.45,SO,1718390327
400,puerto del rosario,28.5004,-13.8627,295.01,68,20,8.23,ES,1718390327
401,sinop,41.7711,34.8709,290.99,89,100,7.55,TR,1718390225
402,bathsheba,13.2167,-59.5167,304.49,70,20,6.69,BB,1718390327
403,karagay,58.2667,54.9368,295.44,81,4,4.05,RU,1718390327
404,utrik,11.2278,169.8474,301.01,75,12,8.13,MH,1718390327
405,takoradi,4.8845,-1.7554,298.84,84,29,4.2,GH,1718390327
406,gustavsberg,59.3268,18.3898,287.69,75,89,4.41,SE,1718390327
407,palmer,42.1584,-72.3287,300.66,67,75,2.06,US,1718390327
408,taseyevo,57.2169,94.8978,293.34,62,100,1.34,RU,1718390327
409,akureyri,65.6835,-18.0878,283.11,81,0,7.72,IS,1718390327
410,zhangjiajie,29.1294,110.4783,297.83,94,3,0.22,CN,1718390327
411,maragogi,-9.0122,-35.2225,298.4,86,100,6.08,BR,1718390327
412,dabhoi,22.1833,73.4333,304.34,64,0,7.54,IN,1718390327
413,vilyuchinsk,52.9306,158.4028,282.0,91,100,1.88,RU,1718390327
414,keetmanshoop,-26.5833,18.1333,290.66,22,0,3.6,NA,1718390327
415,tamale,9.4008,-0.8393,302.95,59,78,3.62,GH,1718390328
416,puerto armuelles,8.2833,-82.8667,302.14,72,100,1.79,PA,1718390328
417,urangan,-25.3,152.9,286.04,84,100,2.24,AU,1718390328
418,the pas,53.8251,-101.2541,292.16,59,100,3.09,CA,1718390328
419,vilyuysk,63.7553,121.6247,286.48,89,92,1.34,RU,1718390328
420,hell-ville,-13.4,48.2667,299.14,73,18,1.02,MG,1718390328
421,marquette,46.5333,-87.6335,294.96,68,1,2.24,US,1718390328
422,labuan,5.2767,115.2417,299.35,89,20,0.0,MY,1718390328
423,madang,-5.2246,145.7966,297.59,93,100,1.8,PG,1718390328
424,bardai,11.65,7.2333,299.99,63,100,3.44,NG,1718390328
425,cabo san lucas,22.8909,-109.9124,302.38,79,20,3.09,MX,1718390328
426,ust'-ilimsk,58.0006,102.6619,288.95,81,100,2.68,RU,1718390328
427,shihezi,44.3,86.0333,295.37,62,98,3.09,CN,1718390328
428,talcahuano,-36.7167,-73.1167,286.97,94,75,6.17,CL,1718390328
429,es castell,39.8795,4.2854,296.53,68,0,6.69,ES,1718390328
430,upata,8.0086,-62.3989,303.15,55,100,2.37,VE,1718390328
431,ad dabbah,18.05,30.95,310.21,9,0,5.0,SD,1718390328
432,bechar,31.6167,-2.2167,311.33,10,40,11.32,DZ,1718390328
433,polyarnyy,69.1989,33.4478,287.05,62,52,4.03,RU,1718390328
434,wolfen,51.6667,12.2833,291.82,91,98,2.6,DE,1718390328
435,suva,-18.1416,178.4415,293.86,100,75,0.0,FJ,1718390329
436,kiunga,-6.1219,141.2906,294.35,100,70,0.84,PG,1718390329
437,naryn,41.4287,75.9911,283.85,50,40,2.47,KG,1718390329
438,vershino-darasunskiy,52.35,115.5167,281.61,91,9,1.74,RU,1718390329
439,maumere,-8.6199,122.2111,295.52,80,42,0.86,ID,1718390329
440,saint-pierre,-21.3393,55.4781,295.97,78,0,0.0,RE,1718390329
441,buka,40.8108,69.1986,296.43,33,23,1.43,UZ,1718390329
442,quepos,9.4236,-84.1652,300.41,87,100,4.88,CR,1718390329
443,cole harbour,44.6724,-63.4751,297.02,63,93,9.77,CA,1718390034
444,koungheul,13.9833,-14.8,306.89,40,50,2.96,SN,1718390329
445,nadi,-17.8,177.4167,295.15,88,20,1.54,FJ,1718390329
446,quebo,11.3333,-14.9333,300.26,78,100,3.89,GW,1718390329
447,shar,49.5886,81.0453,289.09,94,7,2.27,KZ,1718390329
448,port macquarie,-31.4333,152.9167,284.76,88,100,4.41,AU,1718390080
449,nova sintra,14.8667,-24.7167,296.09,83,92,13.27,CV,1718390329
450,hasaki,35.7333,140.8333,292.37,82,93,3.1,JP,1718390330
451,klyuchi,52.2667,79.1667,292.4,80,100,2.15,RU,1718390330
452,karratha,-20.7377,116.8463,293.83,72,0,0.64,AU,1718390289
453,piacabucu,-10.4056,-36.4344,298.53,83,6,5.36,BR,1718390330
454,gasa,31.5,34.4667,300.52,65,0,2.48,PS,1718390330
455,arcadia,34.1397,-118.0353,304.21,59,0,2.06,US,1718390330
456,chubbuck,42.9208,-112.4661,302.5,28,0,9.26,US,1718390330
457,igreja,15.0333,-24.3333,293.12,72,44,8.07,CV,1718390330
458,bac lieu,9.285,105.7244,302.08,79,100,4.85,VN,1718390330
459,tanque verde,32.2517,-110.7373,311.66,9,0,4.92,US,1718390330
460,lompoc,34.6391,-120.4579,298.06,75,0,5.14,US,1718390330
461,tazovsky,67.4667,78.7,279.73,73,100,1.29,RU,1718390330
462,tinajo,29.0788,-13.7081,295.64,56,20,8.23,ES,1718390330
463,ma'ili,21.4219,-158.1803,301.16,65,75,3.6,US,1718390330
464,lapai,9.05,6.5667,302.2,65,97,1.91,NG,1718390330
465,bodden town,19.2833,-81.25,305.15,76,20,5.14,KY,1718390330
466,weno,7.4515,151.8468,297.12,94,100,2.57,FM,1718390330
467,konstantinovka,49.6167,127.9833,284.35,90,100,1.46,RU,1718390330
468,morehead city,34.7229,-76.726,306.17,45,0,5.66,US,1718390330
469,souk ahras,36.2864,7.9511,297.32,30,0,1.44,DZ,1718390330
470,curuca,-0.7289,-47.8481,300.85,83,90,2.12,BR,1718390330
471,cognac,45.5,-0.25,288.93,94,75,5.14,FR,1718390330
472,fredericton,45.9454,-66.6656,297.5,75,100,4.63,CA,1718390330
473,sanandaj,35.3144,46.9923,299.16,24,20,5.14,IR,1718390330
474,ambodifotatra,-16.9833,49.85,298.33,82,82,4.37,MG,1718390330
475,ceeldheer,3.8488,47.1806,298.25,80,56,8.81,SO,1718390330
476,san carlos,9.6612,-68.5827,300.98,84,100,1.74,VE,1718390331
477,bartica,6.4,-58.6167,306.33,89,100,1.26,GY,1718390331
478,yigo village,13.5361,144.8886,300.31,88,75,4.12,GU,1718390331
479,gaspe,48.8334,-64.4819,296.27,64,100,3.09,CA,1718390331
480,fortaleza,-3.7227,-38.5247,302.22,70,40,7.72,BR,1718390032
481,la passe,45.5549,-0.8967,290.36,82,100,7.38,FR,1718390331
482,mubende,0.5606,31.39,292.07,75,56,0.56,UG,1718390331
483,bunia,1.5667,30.25,292.15,80,5,1.47,CD,1718390331
484,vila franca do campo,37.7167,-25.4333,294.38,99,9,2.15,PT,1718390331
485,vreed-en-hoop,6.8093,-58.198,306.33,65,28,4.43,GY,1718390331
486,arkhangel'sk,64.5401,40.5433,292.21,52,20,4.0,RU,1718390331
487,juan griego,11.0817,-63.9655,303.66,63,99,6.12,VE,1718390331
488,mooirivier,-29.2082,29.9946,281.44,51,0,1.07,ZA,1718390331
489,kourou,5.1552,-52.6478,301.18,95,100,3.0,GF,1718390275
490,mana,5.6592,-53.7767,299.72,89,89,5.09,GF,1718390331
491,fort bragg,35.139,-79.006,307.54,44,0,2.06,US,1718390331
492,malmberget,67.1753,20.6549,283.46,87,20,0.0,SE,1718390331
493,rongelap,11.1635,166.8941,301.0,75,91,8.0,MH,1718390331
494,sola,-13.8833,167.55,298.76,83,100,6.37,VU,1718390332
495,lauro de freitas,-12.8944,-38.3272,299.16,65,75,6.17,BR,1718390279
496,chumphon,10.3333,98.8333,297.5,94,100,1.19,TH,1718390332
497,mugia,43.1041,-9.2179,289.77,78,0,4.7,ES,1718390332
498,kupang,-10.1667,123.5833,299.47,78,8,3.09,ID,1718390332
499,el nido,11.1858,119.3956,299.94,85,100,4.86,PH,1718390332
500,nagqu,31.5,92.0,280.15,77,5,1.83,CN,1718390332
501,lagoa,39.05,-27.9833,291.9,76,0,3.7,PT,1718390332
502,villa la angostura,-40.7617,-71.6463,276.25,99,100,2.24,AR,1718390332
503,hithadhoo,-0.6,73.0833,302.13,73,75,4.81,MV,1718390332
504,kyakhta,50.3508,106.4494,284.93,65,1,1.15,RU,1718390332
505,novo lino,-8.915,-35.6467,297.52,89,39,3.82,BR,1718390332
506,sao tome,0.3365,6.7273,301.17,74,75,2.06,ST,1718390332
507,nahiyat al fuhud,30.9697,46.7228,311.42,12,0,4.93,IQ,1718390332
508,midvagur,62.0511,-7.1939,284.61,62,75,9.77,FO,1718390332
509,san antonio de pale,-1.4014,5.6325,297.96,89,35,4.75,GQ,1718390332
510,walvis bay,-22.9575,14.5053,296.68,35,0,0.0,NA,1718390332
511,dunedin,-45.8742,170.5036,284.25,96,100,9.66,NZ,1718390332
512,strezhevoy,60.7333,77.5889,293.13,63,0,0.45,RU,1718390332
513,kargasok,59.0556,80.8572,292.57,76,49,0.89,RU,1718390332
514,princeville,45.7668,-61.2985,299.13,62,0,5.66,CA,1718390333
515,kenora,49.8167,-94.4337,295.69,43,40,5.66,CA,1718390181
516,taltal,-25.4,-70.4833,291.65,60,4,1.77,CL,1718390333
517,stettler,52.3168,-112.7186,293.57,42,5,5.4,CA,1718390333
518,cold lake,54.4502,-110.2017,292.12,59,100,2.57,CA,1718390333
519,eyl,7.9803,49.8164,299.99,77,22,10.45,SO,1718390096
520,springbok,-29.6643,17.8865,288.89,36,0,1.29,ZA,1718390333
521,sao bento,-6.2833,-37.75,304.87,35,100,6.42,BR,1718390333
522,guaratinga,-16.5667,-39.5667,298.51,60,95,3.87,BR,1718390333
523,yerofey pavlovich,53.9667,121.9667,283.42,74,25,1.1,RU,1718390112
524,mabaruma,8.2,-59.7833,303.45,64,100,2.88,GY,1718390333
525,bossangoa,6.4926,17.4552,298.2,69,100,1.49,CF,1718390333
526,baise city,23.8997,106.6133,297.99,96,99,1.78,CN,1718390333
527,nalut,30.3333,10.85,307.87,19,64,6.7,LY,1718390333
528,carutapera,-1.195,-46.02,302.12,71,89,5.29,BR,1718390205
529,queenstown,-31.8976,26.8753,284.81,40,0,3.01,ZA,1718390333
530,bandarbeyla,9.4942,50.8122,299.71,78,24,13.25,SO,1718390333
531,shinas,24.7433,56.4658,311.29,37,0,2.33,OM,1718390333
532,wabag,-5.4781,143.7021,286.08,99,51,0.55,PG,1718390333
533,alta,69.9689,23.2717,287.74,80,40,4.63,NO,1718390333
534,pamanukan,-6.2842,107.8106,297.08,96,9,2.07,ID,1718390333
535,timbuktu,16.7735,-3.0074,313.26,21,20,4.17,ML,1718390333
536,grimstad,58.3405,8.5934,286.1,92,100,5.66,NO,1718390333
537,malanje,-9.5402,16.341,291.38,35,1,2.23,AO,1718390333
538,port douglas,-16.4833,145.4667,292.01,82,11,1.65,AU,1718390333
539,dhuusamarreeb,5.535,46.3861,302.53,40,31,10.47,SO,1718390334
540,konkwesso,10.8469,4.0984,303.35,60,100,1.68,NG,1718390334
541,minas novas,-17.2186,-42.5903,300.8,33,0,3.9,BR,1718390334
542,tadine,-21.55,167.8833,292.77,65,48,1.66,NC,1718390334
543,luba,3.4568,8.5547,299.09,89,100,4.92,GQ,1718390334
544,huarmey,-10.0681,-78.1522,294.04,71,65,5.73,PE,1718390331
545,hamar,60.7945,11.068,286.44,68,100,1.98,NO,1718390334
546,imbituba,-28.24,-48.6703,295.85,58,100,5.39,BR,1718390328
547,kavieng,-2.5744,150.7967,300.41,75,100,0.45,PG,1718390334
548,karapinar,37.716,33.5506,295.04,55,100,5.67,TR,1718390334
549,mosjoen,65.836,13.1908,293.21,82,75,2.06,NO,1718390334
550,vakarai,55.6035,23.8213,288.44,82,100,0.28,LT,1718390334
551,gamba,-2.65,10.0,296.03,92,54,2.68,GA,1718390334
552,an nuhud,12.7,28.4333,303.35,42,100,5.52,SD,1718390334
553,cill airne,52.05,-9.5167,285.63,72,48,3.67,IE,1718390334
554,nyurba,63.2842,118.3319,286.11,90,99,2.85,RU,1718390334
555,ust-tsilma,65.441,52.1498,284.6,95,100,3.58,RU,1718390334
556,loango,-4.6719,11.8312,296.96,88,75,3.6,CG,1718390334
557,la huaca,-4.9117,-80.96,299.55,36,89,5.37,PE,1718390334
558,mahina,-17.5065,-149.489,301.02,69,20,1.03,PF,1718390334
559,aykhal,66.0,111.5,277.28,95,100,10.15,RU,1718390334
560,celestun,20.8667,-90.4,302.32,77,96,2.0,MX,1718390334
561,neiafu,-18.65,-173.9833,299.53,94,75,3.6,TO,1718390334
562,rzhyshchiv,49.9689,31.0463,289.57,93,100,2.21,UA,1718390334
563,dali,25.7,100.1833,291.42,94,100,2.14,CN,1718390334
564,otradnyy,53.376,51.3452,296.95,63,5,2.5,RU,1718390335
565,wuyang,31.9925,116.2472,300.8,67,100,1.05,CN,1718390335
566,santona,43.4439,-3.4576,290.32,92,100,5.36,ES,1718390256
567,keminmaa,65.8596,24.8228,289.02,77,0,3.6,FI,1718390335
568,valdivia,-39.8142,-73.2459,287.2,90,100,1.12,CL,1718390308
569,acarau,-2.8856,-40.12,301.27,74,3,6.95,BR,1718390335
570,santa cruz,-17.8,-63.1667,300.18,78,75,13.38,BO,1718390194
571,trondheim,63.4305,10.3951,292.55,48,16,0.45,NO,1718390100
572,anloga,5.7947,0.8973,300.06,81,100,7.5,GH,1718390335
573,rajanpur,29.1035,70.325,310.37,32,0,8.35,PK,1718390335
574,ringkobing,56.0901,8.244,287.14,88,100,2.57,DK,1718390335
575,prince george,53.9166,-122.753,283.31,80,100,5.14,CA,1718390149
576,bereket,39.2446,55.5154,303.39,46,89,4.67,TM,1718390335
577,canmore,51.0834,-115.3521,294.21,34,0,3.09,CA,1718390335
578,bulolo,-7.2,146.65,294.85,96,84,0.59,PG,1718390335
579,desterro,-7.2906,-37.0939,301.38,47,89,6.91,BR,1718390335
580,rabigh,22.7986,39.0349,303.65,58,0,1.26,SA,1718390335
581,baiyin,36.5583,104.2081,294.3,45,56,0.91,CN,1718390335
582,xinzhou,38.4092,112.7333,291.8,50,1,0.89,CN,1718390335
583,kill devil hills,36.0307,-75.676,303.15,68,0,4.63,US,1718390305
584,ruidoso,33.3317,-105.673,305.4,29,100,6.79,US,1718390036
585,morales,2.757,-76.6172,294.27,91,100,1.89,CO,1718390336
586,rodekro,55.0702,9.3164,289.9,84,0,0.0,DK,1718390336
587,velizh,55.6056,31.1967,284.78,98,100,1.51,RU,1718390336
588,nova vicosa,-17.8919,-39.3719,298.81,62,0,2.98,BR,1718390336
589,vilhena,-12.7406,-60.1458,304.27,45,40,5.14,BR,1718390336
590,langepas,61.2544,75.2124,294.93,61,100,2.58,RU,1718390222
591,inarajan village,13.2736,144.7484,301.23,91,98,6.5,GU,1718390336
592,yakeshi,49.2833,120.7333,282.53,87,39,1.61,CN,1718390336
593,melekhovo,56.2773,41.2935,288.55,97,100,4.02,RU,1718390336
594,veinticinco de mayo,-35.4323,-60.1727,292.03,54,27,2.68,AR,1718390336
